{
  "locations": [
    {
      "name": "Arid Wastes",
      "coordinates2D": {
        "x": 0.3755680583719583,
        "y": 0.20615653063441483
      },
      "spherical": {
        "longitude": -134.79549898609503,
        "latitude": 52.89182448580533
      },
      "position3D": {
        "x": -2.1254377004967306,
        "y": 3.9874892458746,
        "z": -2.140664405118557
      },
      "terrain": "desert"
    },
    {
      "name": "Astral Gate",
      "coordinates2D": {
        "x": 0.4854613267670916,
        "y": 0.3307118156141367
      },
      "spherical": {
        "longitude": -95.23392236384703,
        "latitude": 30.47187318945539
      },
      "position3D": {
        "x": -0.39311206563161355,
        "y": 2.5355766168489327,
        "z": -4.291423321456853
      },
      "terrain": "plains"
    },
    {
      "name": "Bleached Dunes",
      "coordinates2D": {
        "x": 0.4542350901651217,
        "y": 0.2593786210892236
      },
      "spherical": {
        "longitude": -106.47536754055618,
        "latitude": 43.31184820393975
      },
      "position3D": {
        "x": -1.0317919435480682,
        "y": 3.4298441725722713,
        "z": -3.4887783445070473
      },
      "terrain": "desert"
    },
    {
      "name": "Cathedral of Aethelgrad",
      "coordinates2D": {
        "x": 0.06312803266222479,
        "y": 0.16367775926998843
      },
      "spherical": {
        "longitude": -247.2739082415991,
        "latitude": 60.53800333140209
      },
      "position3D": {
        "x": -0.9500650779297674,
        "y": 4.353410603829364,
        "z": 2.2683016691270064
      },
      "terrain": "plains"
    },
    {
      "name": "Cinder-Plateau",
      "coordinates2D": {
        "x": 0.9202602205243336,
        "y": 0.09648392236384706
      },
      "spherical": {
        "longitude": 61.29367938876014,
        "latitude": 72.63289397450752
      },
      "position3D": {
        "x": 0.7168609467176257,
        "y": 4.772059265033668,
        "z": 1.3090304633878593
      },
      "terrain": "plains"
    },
    {
      "name": "Coasts of Jimbora",
      "coordinates2D": {
        "x": 0.10801709154113559,
        "y": 0.33456261768539974
      },
      "spherical": {
        "longitude": -231.1138470451912,
        "latitude": 29.77872881662805
      },
      "position3D": {
        "x": -2.724386040492906,
        "y": 2.4832588348263194,
        "z": 3.3780388188451025
      },
      "terrain": "coastal"
    },
    {
      "name": "Cobalt Shoals",
      "coordinates2D": {
        "x": 0.13671875,
        "y": 0.1953125
      },
      "spherical": {
        "longitude": -220.78125,
        "latitude": 54.84375
      },
      "position3D": {
        "x": -2.1800352821624585,
        "y": 4.087924065757918,
        "z": 1.880511366922333
      },
      "terrain": "coastal"
    },
    {
      "name": "Cypress-Hollows",
      "coordinates2D": {
        "x": 0.11214400166570104,
        "y": 0.4960043543597914
      },
      "spherical": {
        "longitude": -229.62815940034764,
        "latitude": 0.7192162152375474
      },
      "position3D": {
        "x": -3.2384725717677356,
        "y": 0.06276180668765591,
        "z": 3.8089836383908735
      },
      "terrain": "forest"
    },
    {
      "name": "Dragon Tail Isles",
      "coordinates2D": {
        "x": 0.8893757242178447,
        "y": 0.7767157173377751
      },
      "spherical": {
        "longitude": 50.17526071842412,
        "latitude": -49.80882912079951
      },
      "position3D": {
        "x": 2.0665121107927793,
        "y": -3.819477414030949,
        "z": 2.478128321870001
      },
      "terrain": "coastal"
    },
    {
      "name": "Drowning Coast",
      "coordinates2D": {
        "x": 0.33016186268829667,
        "y": 0.5755630793742758
      },
      "spherical": {
        "longitude": -151.1417294322132,
        "latitude": -13.601354287369633
      },
      "position3D": {
        "x": -4.256271984755451,
        "y": -1.1758254352951887,
        "z": -2.3455454243094023
      },
      "terrain": "coastal"
    },
    {
      "name": "Forbidden Archives",
      "coordinates2D": {
        "x": 0.9003476245654692,
        "y": 0.6686714676274623
      },
      "spherical": {
        "longitude": 54.125144843568926,
        "latitude": -30.36086417294322
      },
      "position3D": {
        "x": 2.528249705985365,
        "y": -2.527222534943709,
        "z": 3.4958689453492977
      },
      "terrain": "plains"
    },
    {
      "name": "Forest of Nura",
      "coordinates2D": {
        "x": 0.20111982184241015,
        "y": 0.6638418398754347
      },
      "spherical": {
        "longitude": -197.59686413673234,
        "latitude": -29.491531177578224
      },
      "position3D": {
        "x": -4.148493495221846,
        "y": -2.4614745423167994,
        "z": 1.315729758585831
      },
      "terrain": "forest"
    },
    {
      "name": "Forests of Noctu",
      "coordinates2D": {
        "x": 0.9278150722665949,
        "y": 0.1634300909927992
      },
      "spherical": {
        "longitude": 64.01342601597416,
        "latitude": 60.58258362129615
      },
      "position3D": {
        "x": 1.076053355565107,
        "y": 4.355322746555792,
        "z": 2.20754908197095
      },
      "terrain": "forest"
    },
    {
      "name": "Gale-Roost",
      "coordinates2D": {
        "x": 0.3076171875,
        "y": 0.1171875
      },
      "spherical": {
        "longitude": -159.2578125,
        "latitude": 68.90625
      },
      "position3D": {
        "x": -1.6828395173819806,
        "y": 4.664963994173695,
        "z": -0.6373084746028382
      },
      "terrain": "plains"
    },
    {
      "name": "Gloom-Hollow",
      "coordinates2D": {
        "x": 0.8425901198580533,
        "y": 0.3400553574015064
      },
      "spherical": {
        "longitude": 33.332443148899195,
        "latitude": 28.790035667728844
      },
      "position3D": {
        "x": 3.6611051005236726,
        "y": 2.4080063398339515,
        "z": 2.4078652184536917
      },
      "terrain": "plains"
    },
    {
      "name": "Golden Dunes",
      "coordinates2D": {
        "x": 0.9384516675115875,
        "y": 0.37969383690614134
      },
      "spherical": {
        "longitude": 67.84260030417151,
        "latitude": 21.655109356894556
      },
      "position3D": {
        "x": 1.7526681074776438,
        "y": 1.8450933911254337,
        "z": 4.303926681886668
      },
      "terrain": "desert"
    },
    {
      "name": "Granalith",
      "coordinates2D": {
        "x": 0.3373225666280417,
        "y": 0.37211897088644263
      },
      "spherical": {
        "longitude": -148.56387601390497,
        "latitude": 23.018585240440324
      },
      "position3D": {
        "x": -3.92643469989083,
        "y": 1.955148477180432,
        "z": -2.4001052017926727
      },
      "terrain": "coastal"
    },
    {
      "name": "Infernal Keep",
      "coordinates2D": {
        "x": 0.5870091160921205,
        "y": 0.5793403280706837
      },
      "spherical": {
        "longitude": -58.676718206836625,
        "latitude": -14.281259052723069
      },
      "position3D": {
        "x": 2.519002852951312,
        "y": -1.233410214815492,
        "z": -4.139241943739451
      },
      "terrain": "plains"
    },
    {
      "name": "Ironwood Forest",
      "coordinates2D": {
        "x": 0.22030254200463498,
        "y": 0.9082710204229432
      },
      "spherical": {
        "longitude": -190.6910848783314,
        "latitude": -73.48878367612977
      },
      "position3D": {
        "x": -1.3963487526127534,
        "y": -4.793820585732128,
        "z": 0.2636178159527339
      },
      "terrain": "plains"
    },
    {
      "name": "Jimbora",
      "coordinates2D": {
        "x": 0.0710650076042874,
        "y": 0.3202830786500579
      },
      "spherical": {
        "longitude": -244.41659726245655,
        "latitude": 32.34904584298958
      },
      "position3D": {
        "x": -1.8240355265167443,
        "y": 2.6753785366477274,
        "z": 3.8098876733638027
      },
      "terrain": "plains"
    },
    {
      "name": "Kuroseki",
      "coordinates2D": {
        "x": 0.7421875,
        "y": 0.8984375
      },
      "spherical": {
        "longitude": -2.8124999999999902,
        "latitude": -71.71875000000001
      },
      "position3D": {
        "x": 1.5665194850247157,
        "y": -4.747640902965183,
        "z": -0.07695816740175215
      },
      "terrain": "forest"
    },
    {
      "name": "Gulf of Wyrzel",
      "coordinates2D": {
        "x": 0.1405776581877114,
        "y": 0.7765521508596391
      },
      "spherical": {
        "longitude": -219.3920430524239,
        "latitude": -49.779387154735055
      },
      "position3D": {
        "x": -2.4951802202381246,
        "y": -3.8178188402538273,
        "z": 2.048983887573386
      },
      "terrain": "water"
    },
    {
      "name": "Midnight Grove",
      "coordinates2D": {
        "x": 0.5031707162514485,
        "y": 0.5472031612108922
      },
      "spherical": {
        "longitude": -88.85854214947854,
        "latitude": -8.496569017960594
      },
      "position3D": {
        "x": 0.09851121288194724,
        "y": -0.7387509334140336,
        "z": -4.944142251120655
      },
      "terrain": "forest"
    },
    {
      "name": "Midnight Thicket",
      "coordinates2D": {
        "x": 0.6543975865440325,
        "y": 0.19714115005793742
      },
      "spherical": {
        "longitude": -34.4168688441483,
        "latitude": 54.51459298957126
      },
      "position3D": {
        "x": 2.3943908251369854,
        "y": 4.071316972519256,
        "z": -1.6405092763457552
      },
      "terrain": "forest"
    },
    {
      "name": "Molten Basin",
      "coordinates2D": {
        "x": 0.5805058661645423,
        "y": 0.43946670408458866
      },
      "spherical": {
        "longitude": -61.01788818076478,
        "latitude": 10.895993264774045
      },
      "position3D": {
        "x": 2.37900638494891,
        "y": 0.9451338672293872,
        "z": -4.295002979438821
      },
      "terrain": "plains"
    },
    {
      "name": "Mountains of Eurotha",
      "coordinates2D": {
        "x": 0.2671413311123986,
        "y": 0.45634550622827347
      },
      "spherical": {
        "longitude": -173.8291207995365,
        "latitude": 7.857808878910769
      },
      "position3D": {
        "x": -4.924352688977677,
        "y": 0.6835756172241989,
        "z": -0.5324236753703587
      },
      "terrain": "mountain"
    },
    {
      "name": "Volcanoes of Westura",
      "coordinates2D": {
        "x": 0.6463270839368482,
        "y": 0.5411219944959443
      },
      "spherical": {
        "longitude": -37.32224978273464,
        "latitude": -7.4019590092699765
      },
      "position3D": {
        "x": 3.9430559240805705,
        "y": -0.6441475144573807,
        "z": -3.0062242030812505
      },
      "terrain": "forest"
    },
    {
      "name": "Noxivar Black Sea",
      "coordinates2D": {
        "x": 0.1390622736819236,
        "y": 0.37982057502896877
      },
      "spherical": {
        "longitude": -219.9375814745075,
        "latitude": 21.63229649478562
      },
      "position3D": {
        "x": -3.56370777647459,
        "y": 1.8432429537113282,
        "z": 2.9836960799464944
      },
      "terrain": "water"
    },
    {
      "name": "Nura",
      "coordinates2D": {
        "x": 0.2445955243337196,
        "y": 0.720513017815759
      },
      "spherical": {
        "longitude": -181.94561123986094,
        "latitude": -39.69234320683664
      },
      "position3D": {
        "x": -3.8452065346132347,
        "y": -3.1933249607010046,
        "z": 0.13062312785876182
      },
      "terrain": "coastal"
    },
    {
      "name": "Obsidian City",
      "coordinates2D": {
        "x": 0.3125,
        "y": 0.7568359375
      },
      "spherical": {
        "longitude": -157.5,
        "latitude": -46.23046875
      },
      "position3D": {
        "x": -3.1955111011391626,
        "y": -3.610640969646077,
        "z": -1.3236240368056247
      },
      "terrain": "coastal"
    },
    {
      "name": "Oceans of Nimbitu",
      "coordinates2D": {
        "x": 0.551637863919467,
        "y": 0.8502996451332561
      },
      "spherical": {
        "longitude": -71.41036898899186,
        "latitude": -63.0539361239861
      },
      "position3D": {
        "x": 0.7222958724215464,
        "y": -4.457167495860165,
        "z": -2.147544315382207
      },
      "terrain": "water"
    },
    {
      "name": "Plains of Akatah",
      "coordinates2D": {
        "x": 0.6286437210312863,
        "y": 0.2563040900202781
      },
      "spherical": {
        "longitude": -43.68826042873693,
        "latitude": 43.86526379634994
      },
      "position3D": {
        "x": 2.6067032794502283,
        "y": 3.4648242937269167,
        "z": -2.4899981177710147
      },
      "terrain": "desert"
    },
    {
      "name": "Rottide Swamp",
      "coordinates2D": {
        "x": 0.22023464658169178,
        "y": 0.8139427777375434
      },
      "spherical": {
        "longitude": -190.71552723059096,
        "latitude": -56.50969999275781
      },
      "position3D": {
        "x": -2.710869166437082,
        "y": -4.1698962564403015,
        "z": 0.5129849637035014
      },
      "terrain": "swamp"
    },
    {
      "name": "Rottenham",
      "coordinates2D": {
        "x": 0.717057140787949,
        "y": 0.2988496252172653
      },
      "spherical": {
        "longitude": -11.859429316338357,
        "latitude": 36.20706746089225
      },
      "position3D": {
        "x": 3.9483212057306782,
        "y": 2.953526010270611,
        "z": -0.8291222847278984
      },
      "terrain": "plains"
    },
    {
      "name": "Sanctuary of the Eclipsed Sun",
      "coordinates2D": {
        "x": 0.4827624837050985,
        "y": 0.13761610117323295
      },
      "spherical": {
        "longitude": -96.20550586616453,
        "latitude": 65.22910178881807
      },
      "position3D": {
        "x": -0.22645389940937752,
        "y": 4.539952051909305,
        "z": -2.0826795235481588
      },
      "terrain": "plains"
    },
    {
      "name": "Sanctum of Fractured Hours",
      "coordinates2D": {
        "x": 0.06379114462630354,
        "y": 0.88829731858343
      },
      "spherical": {
        "longitude": -247.03518793453077,
        "latitude": -69.8935173450174
      },
      "position3D": {
        "x": -0.6706284562034254,
        "y": -4.6952768158176745,
        "z": 1.5826032656908207
      },
      "terrain": "plains"
    },
    {
      "name": "Scorchlands",
      "coordinates2D": {
        "x": 0.28603549572711473,
        "y": 0.24705447023464658
      },
      "spherical": {
        "longitude": -167.0272215382387,
        "latitude": 45.53019535776362
      },
      "position3D": {
        "x": -3.4132672412641862,
        "y": 3.5680986758347286,
        "z": -0.7863069243108748
      },
      "terrain": "plains"
    },
    {
      "name": "Seas of Aurelith",
      "coordinates2D": {
        "x": 0.6135528316917729,
        "y": 0.04472158350231745
      },
      "spherical": {
        "longitude": -49.12098059096177,
        "latitude": 81.95011496958286
      },
      "position3D": {
        "x": 0.4582400872463219,
        "y": 4.950732606225797,
        "z": -0.5293984171616055
      },
      "terrain": "water"
    },
    {
      "name": "Shattered Pole",
      "coordinates2D": {
        "x": 0.3440736348493627,
        "y": 0.8332262094438007
      },
      "spherical": {
        "longitude": -146.13349145422941,
        "latitude": -59.9807176998841
      },
      "position3D": {
        "x": -2.07705531408841,
        "y": -4.329285424664374,
        "z": -1.3939615970340424
      },
      "terrain": "coastal"
    },
    {
      "name": "Spires of Lumos",
      "coordinates2D": {
        "x": 0.8005741689600232,
        "y": 0.5139411935110081
      },
      "spherical": {
        "longitude": 18.20670082560835,
        "latitude": -2.50941483198146
      },
      "position3D": {
        "x": 4.745122836866106,
        "y": -0.21891775098128538,
        "z": 1.5607319697363364
      },
      "terrain": "mountain"
    },
    {
      "name": "Star-Forge",
      "coordinates2D": {
        "x": 0.1025390625,
        "y": 0.0927734375
      },
      "spherical": {
        "longitude": -233.08593749999997,
        "latitude": 73.30078125
      },
      "position3D": {
        "x": -0.8629280975582715,
        "y": 4.7891320651376645,
        "z": 1.1487250154474362
      },
      "terrain": "plains"
    },
    {
      "name": "Zhien Po",
      "coordinates2D": {
        "x": 0.849609375,
        "y": 0.1953125
      },
      "spherical": {
        "longitude": 35.85937500000001,
        "latitude": 54.84375
      },
      "position3D": {
        "x": 2.333339467737004,
        "y": 4.087924065757918,
        "z": 1.6865360241922043
      },
      "terrain": "forest"
    },
    {
      "name": "Sunken Shelves",
      "coordinates2D": {
        "x": 0.09327586362977984,
        "y": 0.7293484755214369
      },
      "spherical": {
        "longitude": -236.42068909327926,
        "latitude": -41.28272559385863
      },
      "position3D": {
        "x": -2.0781364161192273,
        "y": -3.2988756769480436,
        "z": 3.1302984368969873
      },
      "terrain": "coastal"
    },
    {
      "name": "Thaloryn Inner Sea",
      "coordinates2D": {
        "x": 0.3635120944380069,
        "y": 0.6673509016512167
      },
      "spherical": {
        "longitude": -139.13564600231751,
        "latitude": -30.12316229721901
      },
      "position3D": {
        "x": -3.27063304786501,
        "y": -2.5093022042751087,
        "z": -2.8295515393491812
      },
      "terrain": "water"
    },
    {
      "name": "Vaelen Expanse",
      "coordinates2D": {
        "x": 0.7638495346900348,
        "y": 0.21640421313731173
      },
      "spherical": {
        "longitude": 4.9858324884125444,
        "latitude": 51.04724163528389
      },
      "position3D": {
        "x": 3.131503088882,
        "y": 3.8883229289484014,
        "z": 0.27319078413558756
      },
      "terrain": "coastal"
    },
    {
      "name": "Valhorian Peaks",
      "coordinates2D": {
        "x": 0.17916357365295482,
        "y": 0.5393533187282735
      },
      "spherical": {
        "longitude": -205.50111348493627,
        "latitude": -7.083597371089237
      },
      "position3D": {
        "x": -4.478439012017363,
        "y": -0.6165869350542567,
        "z": 2.1362126689918632
      },
      "terrain": "mountain"
    },
    {
      "name": "Velmora",
      "coordinates2D": {
        "x": 0.6201171875,
        "y": 0.1318359375
      },
      "spherical": {
        "longitude": -46.75781250000001,
        "latitude": 66.26953125
      },
      "position3D": {
        "x": 1.3785070332479825,
        "y": 4.577243580441339,
        "z": -1.4657965631677534
      },
      "terrain": "plains"
    },
    {
      "name": "Viridian Scar",
      "coordinates2D": {
        "x": 0.012746234067207417,
        "y": 0.20028244495944372
      },
      "spherical": {
        "longitude": -265.41135573580533,
        "latitude": 53.94915990730013
      },
      "position3D": {
        "x": -0.23540517339595615,
        "y": 4.042475591118683,
        "z": 2.9330829343112805
      },
      "terrain": "forest"
    },
    {
      "name": "Vol-Darah",
      "coordinates2D": {
        "x": 0.027642489860950168,
        "y": 0.2722787514484357
      },
      "spherical": {
        "longitude": -260.0487036500579,
        "latitude": 40.98982473928157
      },
      "position3D": {
        "x": -0.6522112099092813,
        "y": 3.2796249420568113,
        "z": 3.717348621949188
      },
      "terrain": "forest"
    },
    {
      "name": "Weeping Thicket",
      "coordinates2D": {
        "x": 0.7643440396871378,
        "y": 0.4752272233487833
      },
      "spherical": {
        "longitude": 5.163854287369636,
        "latitude": 4.45909979721901
      },
      "position3D": {
        "x": 4.964633746893862,
        "y": 0.38873716567550876,
        "z": 0.4486593086353874
      },
      "terrain": "forest"
    },
    {
      "name": "Lake Sivel",
      "coordinates2D": {
        "x": 0.9130938586326767,
        "y": 0.24913093858632676
      },
      "spherical": {
        "longitude": 58.71378910776361,
        "latitude": 45.15643105446119
      },
      "position3D": {
        "x": 1.8310306499506077,
        "y": 3.5451735619886233,
        "z": 3.013149709907948
      },
      "terrain": "custom"
    },
    {
      "name": "Lake Orath",
      "coordinates2D": {
        "x": 0.04866743916570104,
        "y": 0.3603707995365006
      },
      "spherical": {
        "longitude": -252.4797219003476,
        "latitude": 25.133256083429895
      },
      "position3D": {
        "x": -1.3627063478307821,
        "y": 2.1236248444241452,
        "z": 4.316624714951049
      },
      "terrain": "custom"
    },
    {
      "name": "Nile",
      "coordinates2D": {
        "x": 0.8122827346465817,
        "y": 0.4264194669756663
      },
      "spherical": {
        "longitude": 22.421784472769414,
        "latitude": 13.24449594438007
      },
      "position3D": {
        "x": 4.499065933528825,
        "y": 1.145534416321383,
        "z": 1.856382672506841
      },
      "terrain": "custom"
    },
    {
      "name": "Gulf of Netuhsa",
      "coordinates2D": {
        "x": 0.5666280417149478,
        "y": 0.3904982618771726
      },
      "spherical": {
        "longitude": -66.01390498261877,
        "latitude": 19.710312862108932
      },
      "position3D": {
        "x": 1.913485781455043,
        "y": 1.686323557225712,
        "z": -4.3005679885934835
      },
      "terrain": "custom"
    },
    {
      "name": "Thaloryn Outer Sea",
      "coordinates2D": {
        "x": 0.7450753186558516,
        "y": 0.6257242178447276
      },
      "spherical": {
        "longitude": -1.7728852838934355,
        "latitude": -22.630359212050976
      },
      "position3D": {
        "x": 4.612823153668222,
        "y": -1.9239222421668976,
        "z": -0.14277870666824824
      },
      "terrain": "custom"
    },
    {
      "name": "Mount Ilyeiad",
      "coordinates2D": {
        "x": 0.32213209733487835,
        "y": 0.41367323290845887
      },
      "spherical": {
        "longitude": -154.03244495944378,
        "latitude": 15.5388180764774
      },
      "position3D": {
        "x": -4.330907046437605,
        "y": 1.339455887267892,
        "z": -2.1092894730644454
      },
      "terrain": "custom"
    },
    {
      "name": "Forests of Rehm",
      "coordinates2D": {
        "x": 0.3429895712630359,
        "y": 0.5110081112398609
      },
      "spherical": {
        "longitude": -146.52375434530708,
        "latitude": -1.98146002317496
      },
      "position3D": {
        "x": -4.168079173341324,
        "y": -0.17288054180307022,
        "z": -2.7563070081223136
      },
      "terrain": "custom"
    },
    {
      "name": "Wastelands",
      "coordinates2D": {
        "x": 0.42526071842410196,
        "y": 0.3105446118192352
      },
      "spherical": {
        "longitude": -116.90614136732329,
        "latitude": 34.101969872537666
      },
      "position3D": {
        "x": -1.8735683270338475,
        "y": 2.8033373178843273,
        "z": -3.6920240527511052
      },
      "terrain": "custom"
    },
    {
      "name": "Bog-lands",
      "coordinates2D": {
        "x": 0.5724217844727694,
        "y": 0.6488991888760139
      },
      "spherical": {
        "longitude": -63.928157589803035,
        "latitude": -26.80185399768251
      },
      "position3D": {
        "x": 1.9614154010440705,
        "y": -2.2545321153504414,
        "z": -4.008732289066033
      },
      "terrain": "custom"
    },
    {
      "name": "Port of Us'ah",
      "coordinates2D": {
        "x": 0.9409038238702201,
        "y": 0.0660486674391657
      },
      "spherical": {
        "longitude": 68.72537659327924,
        "latitude": 78.11123986095018
      },
      "position3D": {
        "x": 0.37374587851557767,
        "y": 4.892747089402384,
        "z": 0.9598645411916812
      },
      "terrain": "custom"
    },
    {
      "name": "Thelsix",
      "coordinates2D": {
        "x": 0.4704519119351101,
        "y": 0.07415990730011587
      },
      "spherical": {
        "longitude": -100.63731170336035,
        "latitude": 76.65121668597915
      },
      "position3D": {
        "x": -0.2130907066990192,
        "y": 4.86491324467666,
        "z": -1.1345534242547253
      },
      "terrain": "custom"
    }
  ]
}